[
    {
        "code": "ca-west-1",
        "name": "Canada West",
        "latitude": 51.05011,
        "longitude": -114.08529
    },
    {
        "code": "ca-central-1",
        "name": "Canada Central",
        "latitude": 45.5,
        "longitude": -73.6
    },
    {
        "code": "us-east-1",
        "name": "Virginia",
        "latitude": 38.13,
        "longitude": -78.45
    },
    {
        "code": "us-east-2",
        "name": "Ohio",
        "latitude": 39.96,
        "longitude": -83
    },
    {
        "code": "eu-north-1",
        "name": "Stockholm",
        "latitude": 59.25,
        "longitude": 17.81
    },
    {
        "code": "eu-south-1",
        "name": "Milan",
        "latitude": 45.43,
        "longitude": 9.29
    },
    {
        "code": "us-west-1",
        "name": "California",
        "latitude": 37.35,
        "longitude": -121.96
    },
    {
        "code": "us-west-2",
        "name": "Oregon",
        "latitude": 46.15,
        "longitude": -123.88
    },
    {
        "code": "eu-west-1",
        "name": "Ireland",
        "latitude": 53,
        "longitude": -8
    },
    {
        "code": "eu-west-2",
        "name": "London",
        "latitude": 51,
        "longitude": -0.1
    },
    {
        "code": "eu-west-3",
        "name": "Paris",
        "latitude": 48.86,
        "longitude": 2.35
    },
    {
        "code": "eu-central-1",
        "name": "Frankfurt",
        "latitude": 50,
        "longitude": 8
    },
    {
        "code": "sa-east-1",
        "name": "Sao Paulo",
        "latitude": -23.34,
        "longitude": -46.38
    },
    {
        "code": "ap-southeast-1",
        "name": "Singapore",
        "latitude": 1.37,
        "longitude": 103.8
    },
    {
        "code": "ap-southeast-2",
        "name": "Sydney",
        "latitude": -33.86,
        "longitude": 151.2
    },
    {
        "code": "ap-northeast-1",
        "name": "Tokyo",
        "latitude": 35.41,
        "longitude": 139.42
    },
    {
        "code": "ap-northeast-2",
        "name": "Seoul",
        "latitude": 37.56,
        "longitude": 126.98
    },
    {
        "code": "ap-northeast-3",
        "name": "Osaka",
        "latitude": 34.69,
        "longitude": 135.49
    },
    {
        "code": "ap-south-1",
        "name": "Mumbai",
        "latitude": 19.08,
        "longitude": 72.88
    },
    {
        "code": "ap-east-1",
        "name": "Hong Kong",
        "latitude": 22.27,
        "longitude": 114.16
    },
    {
        "code": "me-south-1",
        "name": "Bahrain",
        "latitude": 26.1,
        "longitude": 50.46
    },
    {
        "code": "af-south-1",
        "name": "South Africa",
        "latitude": -33.93,
        "longitude": 18.42
    },
    {
        "code": "ap-southeast-3",
        "name": "Jakarta",
        "latitude": -6.1944,
        "longitude": 106.9229
    }
]
